{"v53mgaby":{"name":"earthquake","city":"Stanford","region":"CA","longitude":"-122.1639","latitude":"37.423","jobID":"v53mgaby","ip":"128.12.123.204","status":"pending"},"4irvfzes":{"name":"earthquake","city":"Stanford","region":"CA","longitude":"-122.1639","latitude":"37.423","jobID":"4irvfzes","ip":"128.12.123.204","status":"pending"},"7a8r0rnj":{"city":"Stanford","region":"CA","longitude":"-122.1639","latitude":"37.423","jobID":"7a8r0rnj","ip":"128.12.123.204","status":"pending"},"9isy08b7":{"city":"Stanford","region":"CA","longitude":"-122.1639","latitude":"37.423","jobID":"9isy08b7","ip":"128.12.123.204","status":"pending"},"rb4508kl":{"city":"Stanford","region":"CA","longitude":"-122.1639","latitude":"37.423","jobID":"rb4508kl","ip":"128.12.123.204","status":"pending"},"lfdvqs00":{"city":"Stanford","region":"CA","longitude":"-122.1639","latitude":"37.423","jobID":"lfdvqs00","ip":"128.12.123.204","status":"pending"},"mjh99de5":{"city":"Stanford","region":"CA","longitude":"-122.1639","latitude":"37.423","jobID":"mjh99de5","ip":"128.12.123.204","status":"pending"},"iyetlfux":{"name":"earthquake","city":"Stanford","region":"CA","longitude":"-122.1639","latitude":"37.423","jobID":"iyetlfux","ip":"128.12.123.204","status":"pending"},"m313yzy5":{"name":"earthquake","city":"Stanford","region":"CA","longitude":"-122.1639","latitude":"37.423","jobID":"m313yzy5","ip":"128.12.123.204","status":"pending"},"aicgifne":{"name":"earthquake","city":"Stanford","region":"CA","longitude":"-122.1639","latitude":"37.423","jobID":"aicgifne","ip":"128.12.123.204","status":"pending"},"nui0azrs":{"name":"earthquake","city":"Stanford","region":"CA","longitude":"-122.1639","latitude":"37.423","jobID":"nui0azrs","ip":"128.12.123.204","status":"pending"},"5dghory3":{"name":"earthquake","city":"Stanford","region":"CA","longitude":"-122.1639","latitude":"37.423","jobID":"5dghory3","ip":"128.12.123.204","status":"pending"},"7xwekl0d":{"name":"earthquake","city":"Stanford","region":"CA","longitude":"-122.1639","latitude":"37.423","jobID":"7xwekl0d","ip":"128.12.123.204","status":"pending"},"0sxh7ycu":{"name":"earthquake","city":"Stanford","region":"CA","longitude":"-122.1639","latitude":"37.423","jobID":"0sxh7ycu","ip":"128.12.123.204","status":"pending"},"0nlive9m":{"name":"earthquake","city":"Stanford","region":"CA","longitude":"-122.1639","latitude":"37.423","jobID":"0nlive9m","ip":"128.12.123.204","status":"pending"},"n35b6udv":{"name":"earthquake","city":"Stanford","region":"CA","longitude":"-122.1639","latitude":"37.423","jobID":"n35b6udv","ip":"128.12.123.204","status":"pending"},"ssassbuk":{"name":"earthquake","city":"Stanford","region":"CA","longitude":"-122.1639","latitude":"37.423","jobID":"ssassbuk","ip":"128.12.123.204","status":"pending"},"5lvngpkm":{"name":"earthquake","city":"Stanford","region":"CA","longitude":"-122.1639","latitude":"37.423","jobID":"5lvngpkm","ip":"128.12.123.204","status":"pending"},"xytbpf93":{"name":"earthquake","city":"Stanford","region":"CA","longitude":"-122.1639","latitude":"37.423","jobID":"xytbpf93","ip":"128.12.123.204","status":"pending"},"3u5ds1wm":{"name":"earthquake","city":"Stanford","region":"CA","longitude":"-122.1639","latitude":"37.423","jobID":"3u5ds1wm","ip":"128.12.123.204","status":"pending"},"iric2tb0":{"name":"earthquake","city":"Stanford","region":"CA","longitude":"-122.1639","latitude":"37.423","jobID":"iric2tb0","ip":"128.12.123.204","status":"pending"},"yb4fqc24":{"name":"earthquake","city":"Stanford","region":"CA","longitude":"-122.1639","latitude":"37.423","jobID":"yb4fqc24","ip":"128.12.123.204","status":"pending"},"mbx8wt15":{"name":"earthquake","city":"Stanford","region":"CA","longitude":"-122.1639","latitude":"37.423","jobID":"mbx8wt15","ip":"128.12.123.204","status":"pending"},"75v6he21":{"name":"earthquake","city":"Stanford","region":"CA","longitude":"-122.1639","latitude":"37.423","jobID":"75v6he21","ip":"128.12.123.204","status":"pending"},"g87mz2xf":{"name":"earthquake","city":"Stanford","region":"CA","longitude":"-122.1639","latitude":"37.423","jobID":"g87mz2xf","ip":"128.12.123.204","status":"pending"},"nwku5jux":{"name":"earthquake","city":"Stanford","region":"CA","longitude":"-122.1639","latitude":"37.423","jobID":"nwku5jux","ip":"128.12.123.204","status":"pending"},"fbv0lpnb":{"name":"earthquake","city":"Stanford","region":"CA","longitude":"-122.1639","latitude":"37.423","jobID":"fbv0lpnb","ip":"128.12.123.204","status":"pending"},"xjd79vvu":{"name":"earthquake","city":"Stanford","region":"CA","longitude":"-122.1639","latitude":"37.423","jobID":"xjd79vvu","ip":"128.12.123.204","status":"pending"},"v21730x1":{"name":"earthquake","city":"Stanford","region":"CA","longitude":"-122.1639","latitude":"37.423","jobID":"v21730x1","ip":"128.12.123.204","status":"pending"},"45wmcnib":{"name":"earthquake","city":"Stanford","region":"CA","longitude":"-122.1639","latitude":"37.423","jobID":"45wmcnib","ip":"128.12.123.204","status":"pending"},"jqczvxih":{"name":"earthquake","city":"Stanford","region":"CA","longitude":"-122.1639","latitude":"37.423","jobID":"jqczvxih","ip":"128.12.123.204","status":"pending"},"zhoknkjv":{"name":"earthquake","city":"Stanford","region":"CA","longitude":"-122.1639","latitude":"37.423","jobID":"zhoknkjv","ip":"128.12.123.204","status":"pending"},"pj56i2ki":{"name":"earthquake","city":"Stanford","region":"CA","longitude":"-122.1639","latitude":"37.423","jobID":"pj56i2ki","ip":"128.12.123.204","status":"pending"},"ixojm4n3":{"name":"earthquake","city":"Stanford","region":"CA","longitude":"-122.1639","latitude":"37.423","jobID":"ixojm4n3","ip":"128.12.123.204","status":"pending"},"iw7uyhsf":{"name":"earthquake","city":"Stanford","region":"CA","longitude":"-122.1639","latitude":"37.423","jobID":"iw7uyhsf","ip":"128.12.123.204","status":"pending"},"c5ud84nf":{"name":"earthquake","city":"Stanford","region":"CA","longitude":"-122.1639","latitude":"37.423","jobID":"c5ud84nf","ip":"128.12.123.204","status":"pending"},"nhxn0tx8":{"name":"earthquake","city":"Stanford","region":"CA","longitude":"-122.1639","latitude":"37.423","jobID":"nhxn0tx8","ip":"128.12.123.204","status":"pending"},"r4m0f7qh":{"name":"earthquake","city":"Stanford","region":"CA","longitude":"-122.1639","latitude":"37.423","jobID":"r4m0f7qh","ip":"128.12.123.204","status":"pending"},"lv7imx09":{"name":"earthquake","city":"Stanford","region":"CA","longitude":"-122.1639","latitude":"37.423","jobID":"lv7imx09","ip":"128.12.123.204","status":"pending"},"eiw37ihd":{"name":"earthquake","city":"Stanford","region":"CA","longitude":"-122.1639","latitude":"37.423","jobID":"eiw37ihd","ip":"128.12.123.204","status":"pending"},"ev9wh5fe":{"name":"earthquake","city":"Stanford","region":"CA","longitude":"-122.1639","latitude":"37.423","jobID":"ev9wh5fe","ip":"128.12.123.204","status":"pending"},"2h2bc5kt":{"name":"earthquake","city":"Stanford","region":"CA","longitude":"-122.1639","latitude":"37.423","jobID":"2h2bc5kt","ip":"128.12.123.204","status":"pending"},"iy3vk5hd":{"name":"earthquake","city":"Stanford","region":"CA","longitude":"-122.1639","latitude":"37.423","jobID":"iy3vk5hd","ip":"128.12.123.204","status":"pending"},"xbtch9o3":{"name":"earthquake","city":"Stanford","region":"CA","longitude":"-122.1639","latitude":"37.423","jobID":"xbtch9o3","ip":"128.12.123.204","status":"pending"},"xv2d0elt":{"name":"earthquake","city":"Stanford","region":"CA","longitude":"-122.1639","latitude":"37.423","jobID":"xv2d0elt","ip":"128.12.123.204","status":"pending"},"fvedr13h":{"name":"earthquake","city":"Stanford","region":"CA","longitude":"-122.1639","latitude":"37.423","jobID":"fvedr13h","ip":"128.12.123.204","status":"pending"},"kqwlpmxt":{"name":"earthquake","city":"Stanford","region":"CA","longitude":"-122.1639","latitude":"37.423","jobID":"kqwlpmxt","ip":"128.12.123.204","status":"pending"},"qf1rfuc4":{"name":"earthquake","city":"Stanford","region":"CA","longitude":"-122.1639","latitude":"37.423","jobID":"qf1rfuc4","ip":"128.12.123.204","status":"pending"},"weepdz9h":{"name":"earthquake","city":"Stanford","region":"CA","longitude":"-122.1639","latitude":"37.423","jobID":"weepdz9h","ip":"128.12.123.204","status":"pending"},"bhgsb33i":{"name":"earthquake","city":"Stanford","region":"CA","longitude":"-122.1639","latitude":"37.423","jobID":"bhgsb33i","ip":"128.12.123.204","status":"pending"},"gs0lemna":{"name":"earthquake","city":"Stanford","region":"CA","longitude":"-122.1639","latitude":"37.423","jobID":"gs0lemna","ip":"128.12.123.204","status":"pending"},"2g84s9r5":{"name":"earthquake","city":"Stanford","region":"CA","longitude":"-122.1639","latitude":"37.423","jobID":"2g84s9r5","ip":"128.12.123.204","status":"pending"},"7024pili":{"name":"earthquake","city":"Stanford","region":"CA","longitude":"-122.1639","latitude":"37.423","jobID":"7024pili","ip":"128.12.123.204","status":"pending"},"bzawcnny":{"name":"earthquake","city":"Stanford","region":"CA","longitude":"-122.1639","latitude":"37.423","jobID":"bzawcnny","ip":"128.12.123.204","status":"pending"},"9avapb2q":{"name":"earthquake","city":"Stanford","region":"CA","longitude":"-122.1639","latitude":"37.423","jobID":"9avapb2q","ip":"128.12.123.204","status":"pending"},"olrx2qkg":{"name":"earthquake","city":"Stanford","region":"CA","longitude":"-122.1639","latitude":"37.423","jobID":"olrx2qkg","ip":"128.12.123.204","status":"pending"},"mw9za3kn":{"name":"earthquake","city":"Stanford","region":"CA","longitude":"-122.1639","latitude":"37.423","jobID":"mw9za3kn","ip":"128.12.123.204","status":"pending"},"fgwpbyde":{"name":"earthquake","city":"Stanford","region":"CA","longitude":"-122.1639","latitude":"37.423","jobID":"fgwpbyde","ip":"128.12.123.204","status":"pending"},"9aty5geu":{"name":"earthquake","city":"Stanford","region":"CA","longitude":"-122.1639","latitude":"37.423","jobID":"9aty5geu","ip":"128.12.123.204","status":"pending"},"r0xcji6a":{"name":"earthquake","city":"Stanford","region":"CA","longitude":"-122.1639","latitude":"37.423","jobID":"r0xcji6a","ip":"128.12.123.204","status":"pending"},"jns0jc2w":{"name":"earthquake","city":"Stanford","region":"CA","longitude":"-122.1639","latitude":"37.423","jobID":"jns0jc2w","ip":"128.12.123.204","status":"pending"},"a4srr1ai":{"name":"earthquake","city":"Stanford","region":"CA","longitude":"-122.1639","latitude":"37.423","jobID":"a4srr1ai","ip":"128.12.123.204","status":"pending"},"kb32to5u":{"name":"earthquake","city":"Stanford","region":"CA","longitude":"-122.1639","latitude":"37.423","jobID":"kb32to5u","ip":"128.12.123.204","status":"pending"},"k9zd6k1z":{"name":"earthquake","city":"Stanford","region":"CA","longitude":"-122.1639","latitude":"37.423","jobID":"k9zd6k1z","ip":"128.12.123.204","status":"pending"},"g4972z3c":{"name":"earthquake","city":"Stanford","region":"CA","longitude":"-122.1639","latitude":"37.423","jobID":"g4972z3c","ip":"128.12.123.204","status":"pending"},"rdbss7ny":{"name":"earthquake","city":"Stanford","region":"CA","longitude":"-122.1639","latitude":"37.423","jobID":"rdbss7ny","ip":"128.12.123.204","status":"pending"},"tv9xjgbv":{"name":"earthquake","city":"Stanford","region":"CA","longitude":"-122.1639","latitude":"37.423","jobID":"tv9xjgbv","ip":"128.12.123.204","status":"pending"},"ml5okwz1":{"name":"earthquake","city":"Stanford","region":"CA","longitude":"-122.1639","latitude":"37.423","jobID":"ml5okwz1","ip":"128.12.123.204","status":"pending"},"topazokr":{"name":"earthquake","city":"Stanford","region":"CA","longitude":"-122.1639","latitude":"37.423","jobID":"topazokr","ip":"128.12.123.204","status":"pending"},"fo0kko4n":{"name":"earthquake","city":"Stanford","region":"CA","longitude":"-122.1639","latitude":"37.423","jobID":"fo0kko4n","ip":"128.12.123.204","status":"pending"},"fhdz1668":{"name":"earthquake","city":"Stanford","region":"CA","longitude":"-122.1639","latitude":"37.423","jobID":"fhdz1668","ip":"128.12.123.204","status":"pending"},"18wq1gx4":{"name":"earthquake","city":"Stanford","region":"CA","longitude":"-122.1639","latitude":"37.423","jobID":"18wq1gx4","ip":"128.12.123.204","status":"pending"},"0g7ky610":{"name":"earthquake","city":"Stanford","region":"CA","longitude":"-122.1639","latitude":"37.423","jobID":"0g7ky610","ip":"128.12.123.204","status":"pending"},"0rf2gl6q":{"name":"earthquake","city":"Stanford","region":"CA","longitude":"-122.1639","latitude":"37.423","jobID":"0rf2gl6q","ip":"128.12.123.204","status":"pending"},"lsekqn5j":{"name":"earthquake","city":"Stanford","region":"CA","longitude":"-122.1639","latitude":"37.423","jobID":"lsekqn5j","ip":"128.12.123.204","status":"pending"},"2lyku92d":{"name":"earthquake","city":"Stanford","region":"CA","longitude":"-122.1639","latitude":"37.423","jobID":"2lyku92d","ip":"128.12.123.204","status":"pending"},"85xzqw1c":{"name":"earthquake","city":"Stanford","region":"CA","longitude":"-122.1639","latitude":"37.423","jobID":"85xzqw1c","ip":"128.12.123.204","status":"pending"},"fx46zjm5":{"name":"earthquake","city":"Stanford","region":"CA","longitude":"-122.1639","latitude":"37.423","jobID":"fx46zjm5","ip":"128.12.123.204","status":"pending"},"ifxo6f5v":{"name":"earthquake","city":"Stanford","region":"CA","longitude":"-122.1639","latitude":"37.423","jobID":"ifxo6f5v","ip":"128.12.123.204","status":"pending"},"h4hhoxkf":{"name":"earthquake","city":"Stanford","region":"CA","longitude":"-122.1639","latitude":"37.423","jobID":"h4hhoxkf","ip":"128.12.123.204","status":"pending"},"1gdsz1hs":{"name":"earthquake","city":"Stanford","region":"CA","longitude":"-122.1639","latitude":"37.423","jobID":"1gdsz1hs","ip":"128.12.123.204","status":"pending"},"5kc8g4lh":{"name":"earthquake","city":"Stanford","region":"CA","longitude":"-122.1639","latitude":"37.423","jobID":"5kc8g4lh","ip":"128.12.123.204","status":"pending"}}