{"hjtbmf5xrq":{"name":"earthquake","ip":["::1"],"time":"2023-08-01T18:24:26.210Z","location":{"city":"Stanford","region":"CA","longitude":"-122.1639","latitude":"37.423"},"actions":[],"supplies":[]},"pg7c6szqlv":{"name":"earthquake","ip":["::1"],"time":"2023-08-01T18:24:41.676Z","location":{"city":"Stanford","region":"CA","longitude":"-122.1639","latitude":"37.423"},"actions":[],"supplies":[]},"paqk98kgjm":{"name":"earthquake","ip":["::1","::1"],"time":"2023-08-01T18:25:27.199Z","location":{"city":"Stanford","region":"CA","longitude":"-122.1639","latitude":"37.423"},"actions":[],"supplies":[]},"jsyumggv5s":{"name":"earthquake","ip":["::1"],"time":"2023-08-01T18:33:31.554Z","location":{"city":"Stanford","region":"CA","longitude":"-122.1639","latitude":"37.423"},"actions":[],"supplies":[]},"t0jad4wgt1":{"name":"earthquake","ip":["::1"],"time":"2023-08-01T23:18:18.938Z","location":{"city":"Stanford","region":"CA","longitude":"-122.1639","latitude":"37.423"},"actions":[],"supplies":[]},"8bw5hbqrbs":{"name":"earthquake","ip":["::1"],"time":"2023-08-01T23:19:02.735Z","location":{"city":"Stanford","region":"CA","longitude":"-122.1639","latitude":"37.423"},"actions":[],"supplies":[]},"6s9euhq5ck":{"name":"earthquake","ip":["::1"],"time":"2023-08-01T23:21:35.759Z","location":{"city":"Stanford","region":"CA","longitude":"-122.1639","latitude":"37.423"},"actions":[],"supplies":[]},"ben8leq1ft":{"name":"earthquake","ip":["::1"],"time":"2023-08-01T23:24:00.598Z","location":{"city":"Stanford","region":"CA","longitude":"-122.1639","latitude":"37.423"},"actions":[],"supplies":[]},"8s99ltsz0c":{"name":"earthquake","ip":["::1"],"time":"2023-08-01T23:26:31.936Z","location":{"city":"Stanford","region":"CA","longitude":"-122.1639","latitude":"37.423"},"actions":[],"supplies":[]},"jso3aj1e8q":{"name":"earthquake","ip":["::1"],"time":"2023-08-01T23:30:26.190Z","location":{"city":"Stanford","region":"CA","longitude":"-122.1639","latitude":"37.423"},"actions":[],"supplies":[]}}